{
  "type": "FeatureCollection",
  "features": [
    {
      "type": "Feature",
      "properties": {
        "name": "Landeryds Golfklubb",
        "municipality": "Linköping",
        "region": "Östergötland",
        "holes": 9,
        "pay_and_play": true,
        "verified": false,
        "website": "https://landeryd.se",
        "last_updated": "2026-02"
      },
      "geometry": {
        "type": "Point",
        "coordinates": [
          15.6884,
          58.3927
        ]
      }
    },
    {
      "type": "Feature",
      "properties": {
        "name": "Linköpings Golfklubb",
        "municipality": "Linköping",
        "region": "Östergötland",
        "holes": 9,
        "pay_and_play": true,
        "verified": false,
        "website": "https://linkopingsgk.se",
        "last_updated": "2026-02"
      },
      "geometry": {
        "type": "Point",
        "coordinates": [
          15.6293,
          58.4158
        ]
      }
    },
    {
      "type": "Feature",
      "properties": {
        "name": "Norrköpings Golfklubb",
        "municipality": "Norrköping",
        "region": "Östergötland",
        "holes": 9,
        "pay_and_play": true,
        "verified": false,
        "website": "https://www.golfnorrkoping.se/segora/norrkopings-golfklubb/",
        "last_updated": "2026-02"
      },
      "geometry": {
        "type": "Point",
        "coordinates": [
          16.1784,
          58.5877
        ]
      }
    },
    {
      "type": "Feature",
      "properties": {
        "name": "Finspångs Golfklubb",
        "municipality": "Finspång",
        "region": "Östergötland",
        "holes": 9,
        "pay_and_play": true,
        "verified": false,
        "website": "https://finspangsgk.se",
        "last_updated": "2026-02"
      },
      "geometry": {
        "type": "Point",
        "coordinates": [
          15.7795,
          58.7124
        ]
      }
    },
    {
      "type": "Feature",
      "properties": {
        "name": "Söderköpings Golfklubb",
        "municipality": "Söderköping",
        "region": "Östergötland",
        "holes": 9,
        "pay_and_play": true,
        "verified": false,
        "website": "https://www.nsgk.se/",
        "last_updated": "2026-02"
      },
      "geometry": {
        "type": "Point",
        "coordinates": [
          16.3052,
          58.4761
        ]
      }
    },
    {
      "type": "Feature",
      "properties": {
        "name": "Vadstena Golfklubb",
        "municipality": "Vadstena",
        "region": "Östergötland",
        "holes": 9,
        "pay_and_play": true,
        "verified": false,
        "website": "https://vadstenagk.se",
        "last_updated": "2026-02"
      },
      "geometry": {
        "type": "Point",
        "coordinates": [
          14.8972,
          58.4519
        ]
      }
    },
    {
      "type": "Feature",
      "properties": {
        "name": "Mjölby Golfklubb",
        "municipality": "Mjölby",
        "region": "Östergötland",
        "holes": 9,
        "pay_and_play": true,
        "verified": false,
        "website": "https://mjolbygk.se",
        "last_updated": "2026-02"
      },
      "geometry": {
        "type": "Point",
        "coordinates": [
          15.1438,
          58.3245
        ]
      }
    },
    {
      "type": "Feature",
      "properties": {
        "name": "Åtvidabergs Golfklubb",
        "municipality": "Åtvidaberg",
        "region": "Östergötland",
        "holes": 9,
        "pay_and_play": true,
        "verified": true,
        "website": "https://atvidabergsgk.se",
        "last_updated": "2026-02"
      },
      "geometry": {
        "type": "Point",
        "coordinates": [
          16.0032,
          58.1987
        ]
      }
    },
    {
      "type": "Feature",
      "properties": {
        "name": "Bråvikens Golfklubb",
        "municipality": "Norrköping",
        "region": "Östergötland",
        "holes": 8,
        "pay_and_play": true,
        "verified": false,
        "website": "https://bravikensgk.se",
        "last_updated": "2026-02"
      },
      "geometry": {
        "type": "Point",
        "coordinates": [
          16.252,
          58.643
        ]
      }
    },
    {
      "type": "Feature",
      "properties": {
        "name": "Fleminge Golfklubb",
        "municipality": "Söderköping",
        "region": "Östergötland",
        "holes": 9,
        "pay_and_play": true,
        "verified": false,
        "website": "https://flemingegk.se",
        "last_updated": "2026-02"
      },
      "geometry": {
        "type": "Point",
        "coordinates": [
          16.325,
          58.395
        ]
      }
    },
    {
      "type": "Feature",
      "properties": {
        "name": "Ingelsta Golfklubb",
        "municipality": "Norrköping",
        "region": "Östergötland",
        "holes": 12,
        "pay_and_play": true,
        "verified": false,
        "website": "https://ingelstagk.se",
        "last_updated": "2026-02"
      },
      "geometry": {
        "type": "Point",
        "coordinates": [
          16.2005,
          58.6105
        ]
      }
    },
    {
      "type": "Feature",
      "properties": {
        "name": "Motala Golfklubb",
        "municipality": "Motala",
        "region": "Östergötland",
        "holes": 9,
        "pay_and_play": true,
        "verified": false,
        "website": "https://motalagk.se",
        "last_updated": "2026-02"
      },
      "geometry": {
        "type": "Point",
        "coordinates": [
          15.034,
          58.539
        ]
      }
    },
    {
      "type": "Feature",
      "properties": {
        "name": "NSGK Hylinge",
        "municipality": "Norrköping",
        "region": "Östergötland",
        "holes": 9,
        "pay_and_play": true,
        "verified": false,
        "website": "https://www.nsgk.se/",
        "last_updated": "2026-02"
      },
      "geometry": {
        "type": "Point",
        "coordinates": [
          16.1485,
          58.5485
        ]
      }
    },
    {
      "type": "Feature",
      "properties": {
        "name": "Vreta Kloster Golfklubb",
        "municipality": "Linköping",
        "region": "Östergötland",
        "holes": 9,
        "pay_and_play": true,
        "verified": false,
        "website": "https://vretagk.se",
        "last_updated": "2026-02"
      },
      "geometry": {
        "type": "Point",
        "coordinates": [
          15.5405,
          58.472
        ]
      }
    }
  ]
}
