{
  "type": "FeatureCollection",
  "features": [

    {
      "type": "Feature",
      "properties": {
        "name": "Ozo Golf Club",
        "municipality": "Riga",
        "region": "Lettland",
        "holes": 18,
        "pay_and_play": true,
        "verified": false,
        "website": "https://www.ozogolf.lv",
        "last_updated": "2026-02"
      },
      "geometry": {
        "type": "Point",
        "coordinates": [
          24.1675,
          56.9629
        ]
      }
    },
    {
      "type": "Feature",
      "properties": {
        "name": "Viesturi Golf Club",
        "municipality": "Jaunmārupe",
        "region": "Lettland",
        "holes": 9,
        "pay_and_play": true,
        "verified": false,
        "website": "https://www.viesturi.com/en/golf",
        "last_updated": "2026-02"
      },
      "geometry": {
        "type": "Point",
        "coordinates": [
          23.8764,
          56.8950
        ]
      }
    },
    {
      "type": "Feature",
      "properties": {
        "name": "Jurmala Golf Club & Hotel",
        "municipality": "Piņķi",
        "region": "Lettland",
        "holes": 18,
        "pay_and_play": true,
        "verified": false,
        "website": "https://jurmalagolf.com",
        "last_updated": "2026-02"
      },
      "geometry": {
        "type": "Point",
        "coordinates": [
          23.8875,
          56.9558
        ]
      }
    },
    {
      "type": "Feature",
      "properties": {
        "name": "Reiņa Trase Golf Club",
        "municipality": "Krimulda",
        "region": "Lettland",
        "holes": 9,
        "pay_and_play": true,
        "verified": false,
        "website": "https://www.reinatrase.lv",
        "last_updated": "2026-02"
      },
      "geometry": {
        "type": "Point",
        "coordinates": [
          24.8175,
          57.1797
        ]
      }
    },
    {
      "type": "Feature",
      "properties": {
        "name": "Saliena Golf",
        "municipality": "Babīte",
        "region": "Lettland",
        "holes": 18,
        "pay_and_play": true,
        "verified": false,
        "website": "https://www.salienagolf.com",
        "last_updated": "2026-02"
      },
      "geometry": {
        "type": "Point",
        "coordinates": [
          23.8833,
          56.9560
        ]
      }
    }

  ]
}
