{
  "type": "FeatureCollection",
  "features": [
    {
      "type": "Feature",
      "id": "niitvalja-golf",
      "properties": {
        "name": "Niitvälja Golf",
        "municipality": "Lääne-Harju",
        "region": "Estland",
        "holes": 18,
        "pay_and_play": true,
        "verified": false,
        "website": "https://niitvaljagolf.ee/en",
        "last_updated": "2026-02"
      },
      "geometry": {
        "type": "Point",
        "coordinates": [24.2218, 59.3362]
      }
    },
    {
      "type": "Feature",
      "id": "estonian-golf-country-club",
      "properties": {
        "name": "Estonian Golf & Country Club",
        "municipality": "Jõelähtme",
        "region": "Estland",
        "holes": 18,
        "pay_and_play": true,
        "verified": false,
        "website": "https://egcc.ee/en",
        "last_updated": "2026-02"
      },
      "geometry": {
        "type": "Point",
        "coordinates": [25.0193, 59.4681]
      }
    },
    {
      "type": "Feature",
      "id": "rae-golf",
      "properties": {
        "name": "Rae Golf",
        "municipality": "Rae",
        "region": "Estland",
        "holes": 18,
        "pay_and_play": true,
        "verified": false,
        "website": "https://raegolf.ee",
        "last_updated": "2026-02"
      },
      "geometry": {
        "type": "Point",
        "coordinates": [24.8321, 59.3739]
      }
    },
    {
      "type": "Feature",
      "id": "otepaa-golf-club",
      "properties": {
        "name": "Otepää Golf Club",
        "municipality": "Otepää",
        "region": "Estland",
        "holes": 18,
        "pay_and_play": true,
        "verified": false,
        "website": "https://otepaagolf.com/en/",
        "last_updated": "2026-02"
      },
      "geometry": {
        "type": "Point",
        "coordinates": [26.5159, 58.0518]
      }
    },
    {
      "type": "Feature",
      "id": "parnu-bay-golf-links",
      "properties": {
        "name": "Pärnu Bay Golf Links",
        "municipality": "Pärnu",
        "region": "Estland",
        "holes": 18,
        "pay_and_play": true,
        "verified": false,
        "website": "https://parnubay.com",
        "last_updated": "2026-02"
      },
      "geometry": {
        "type": "Point",
        "coordinates": [24.4031, 58.3738]
      }
    },
    {
      "type": "Feature",
      "id": "saare-golf",
      "properties": {
        "name": "Saare Golf",
        "municipality": "Kuressaare",
        "region": "Estland",
        "holes": 18,
        "pay_and_play": true,
        "verified": false,
        "website": "https://saaregolf.ee",
        "last_updated": "2026-02"
      },
      "geometry": {
        "type": "Point",
        "coordinates": [22.4687, 58.2456]
      }
    }
  ]
}
