{
  "type": "FeatureCollection",
  "name": "ostergotland",
  "features": [
    {
      "type": "Feature",
      "properties": {
        "name": "Landeryds Golfklubb (Vesterby/SkandiaMäklar)",
        "municipality": "Linköping",
        "region": "Östergötland",
        "holes": 9,
        "pay_and_play": true,
        "verified": false,
        "website": "https://landeryd.se",
        "last_updated": "2026-03"
      },
      "geometry": { "type": "Point", "coordinates": [15.6984, 58.3527] }
    },
    {
      "type": "Feature",
      "properties": {
        "name": "Linköpings Golfklubb",
        "municipality": "Linköping",
        "region": "Östergötland",
        "holes": 9,
        "pay_and_play": true,
        "verified": false,
        "website": "https://linkopingsgk.se",
        "last_updated": "2026-03"
      },
      "geometry": { "type": "Point", "coordinates": [15.5893, 58.4058] }
    },
    {
      "type": "Feature",
      "properties": {
        "name": "Norrköping Söderköping GK (Klinga)",
        "municipality": "Norrköping",
        "region": "Östergötland",
        "holes": 18,
        "pay_and_play": true,
        "verified": false,
        "website": "https://www.nsgk.se/",
        "last_updated": "2026-03"
      },
      "geometry": { "type": "Point", "coordinates": [16.1484, 58.5677] }
    },
    {
      "type": "Feature",
      "properties": {
        "name": "Finspångs Golfklubb (Röd slinga)",
        "municipality": "Finspång",
        "region": "Östergötland",
        "holes": 9,
        "pay_and_play": true,
        "verified": false,
        "website": "https://finspangsgk.se",
        "last_updated": "2026-03"
      },
      "geometry": { "type": "Point", "coordinates": [15.8295, 58.6924] }
    },
    {
      "type": "Feature",
      "properties": {
        "name": "Söderköpings Golfklubb",
        "municipality": "Söderköping",
        "region": "Östergötland",
        "holes": 9,
        "pay_and_play": true,
        "verified": false,
        "website": "https://www.nsgk.se/",
        "last_updated": "2026-03"
      },
      "geometry": { "type": "Point", "coordinates": [16.3252, 58.4861] }
    },
    {
      "type": "Feature",
      "properties": {
        "name": "Vadstena Golfklubb",
        "municipality": "Vadstena",
        "region": "Östergötland",
        "holes": 9,
        "pay_and_play": true,
        "verified": false,
        "website": "https://vadstenagk.se",
        "last_updated": "2026-03"
      },
      "geometry": { "type": "Point", "coordinates": [14.9272, 58.4319] }
    },
    {
      "type": "Feature",
      "properties": {
        "name": "Mjölby Golfklubb",
        "municipality": "Mjölby",
        "region": "Östergötland",
        "holes": 9,
        "pay_and_play": true,
        "verified": false,
        "website": "https://mjolbygk.se",
        "last_updated": "2026-03"
      },
      "geometry": { "type": "Point", "coordinates": [15.1138, 58.3345] }
    },
    {
      "type": "Feature",
      "properties": {
        "name": "Åtvidabergs Golfklubb",
        "municipality": "Åtvidaberg",
        "region": "Östergötland",
        "holes": 9,
        "pay_and_play": true,
        "verified": true,
        "website": "https://atvidabergsgk.se",
        "last_updated": "2026-03"
      },
      "geometry": { "type": "Point", "coordinates": [16.0132, 58.2087] }
    },
    {
      "type": "Feature",
      "properties": {
        "name": "Bråvikens Golfklubb (Korthålsbana)",
        "municipality": "Norrköping",
        "region": "Östergötland",
        "holes": 8,
        "pay_and_play": true,
        "verified": false,
        "website": "https://bragk.se",
        "last_updated": "2026-03"
      },
      "geometry": { "type": "Point", "coordinates": [16.272, 58.623] }
    },
    {
      "type": "Feature",
      "properties": {
        "name": "Fleminge Golfklubb",
        "municipality": "Vikbolandet",
        "region": "Östergötland",
        "holes": 9,
        "pay_and_play": true,
        "verified": false,
        "website": "https://flemmingegolf.se",
        "last_updated": "2026-03"
      },
      "geometry": { "type": "Point", "coordinates": [16.515, 58.535] }
    },
    {
      "type": "Feature",
      "properties": {
        "name": "Ingelsta Golfklubb",
        "municipality": "Norrköping",
        "region": "Östergötland",
        "holes": 12,
        "pay_and_play": true,
        "verified": false,
        "website": "https://ingelstagk.se",
        "last_updated": "2026-03"
      },
      "geometry": { "type": "Point", "coordinates": [16.1805, 58.6205] }
    },
    {
      "type": "Feature",
      "properties": {
        "name": "Motala Golfklubb (Hedslingan)",
        "municipality": "Motala",
        "region": "Östergötland",
        "holes": 9,
        "pay_and_play": true,
        "verified": false,
        "website": "https://motalagk.se",
        "last_updated": "2026-03"
      },
      "geometry": { "type": "Point", "coordinates": [15.104, 58.559] }
    },
    {
      "type": "Feature",
      "properties": {
        "name": "NSGK Hylinge",
        "municipality": "Söderköping",
        "region": "Östergötland",
        "holes": 9,
        "pay_and_play": true,
        "verified": false,
        "website": "https://www.nsgk.se/",
        "last_updated": "2026-03"
      },
      "geometry": { "type": "Point", "coordinates": [16.1685, 58.4885] }
    },
    {
      "type": "Feature",
      "properties": {
        "name": "Vreta Kloster Golfklubb",
        "municipality": "Ljungsbro",
        "region": "Östergötland",
        "holes": 9,
        "pay_and_play": true,
        "verified": false,
        "website": "https://www.vkgk.se",
        "last_updated": "2026-03"
      },
      "geometry": { "type": "Point", "coordinates": [15.5105, 58.502] }
    },
    {
      "type": "Feature",
      "properties": {
        "name": "Motala Golfklubb (Korthålsbana)",
        "municipality": "Motala",
        "region": "Östergötland",
        "holes": 6,
        "pay_and_play": true,
        "verified": false,
        "website": "https://motalagk.se",
        "last_updated": "2026-03"
      },
      "geometry": { "type": "Point", "coordinates": [15.095, 58.557] }
    },
    {
      "type": "Feature",
      "properties": {
        "name": "Mauritzbergs Slott & Golf",
        "municipality": "Vikbolandet",
        "region": "Östergötland",
        "holes": 18,
        "pay_and_play": true,
        "verified": false,
        "website": "https://mauritzberg.se",
        "last_updated": "2026-03"
      },
      "geometry": { "type": "Point", "coordinates": [16.678, 58.608] }
    },
    {
      "type": "Feature",
      "properties": {
        "name": "Ombergs Golf Resort",
        "municipality": "Ödeshög",
        "region": "Östergötland",
        "holes": 18,
        "pay_and_play": true,
        "verified": false,
        "website": "https://omberggolf.se",
        "last_updated": "2026-03"
      },
      "geometry": { "type": "Point", "coordinates": [14.655, 58.332] }
    }
  ]
}
