{
"type": "FeatureCollection",
"name": "ostergotland",
"features": [

{
"type": "Feature",
"properties": {
"id": "landeryds-golfklubb-vesterby",
"name": "Landeryds Golfklubb (Vesterby)",
"municipality": "Linköping",
"region": "Östergötland",
"holes": 9,
"pay_and_play": true,
"verified": true,
"website": "https://landeryd.se",
"last_updated": "2026-03"
},
"geometry": { "type": "Point", "coordinates": [15.6989,58.3529] }
},

{
"type": "Feature",
"properties": {
"id": "linkopings-golfklubb",
"name": "Linköpings Golfklubb",
"municipality": "Linköping",
"region": "Östergötland",
"holes": 9,
"pay_and_play": true,
"verified": true,
"website": "https://linkopingsgk.se",
"last_updated": "2026-03"
},
"geometry": { "type": "Point", "coordinates": [15.5896,58.4061] }
},

{
"type": "Feature",
"properties": {
"id": "norrkoping-soderkoping-gk-klinga",
"name": "Norrköping Söderköping GK (Klinga)",
"municipality": "Norrköping",
"region": "Östergötland",
"holes": 18,
"pay_and_play": true,
"verified": true,
"website": "https://www.nsgk.se/",
"last_updated": "2026-03"
},
"geometry": { "type": "Point", "coordinates": [16.1487,58.5679] }
},

{
"type": "Feature",
"properties": {
"id": "finspangs-golfklubb",
"name": "Finspångs Golfklubb",
"municipality": "Finspång",
"region": "Östergötland",
"holes": 9,
"pay_and_play": true,
"verified": true,
"website": "https://finspangsgk.se",
"last_updated": "2026-03"
},
"geometry": { "type": "Point", "coordinates": [15.8298,58.6926] }
},

{
"type": "Feature",
"properties": {
"id": "soderkopings-golfklubb",
"name": "Söderköpings Golfklubb",
"municipality": "Söderköping",
"region": "Östergötland",
"holes": 9,
"pay_and_play": true,
"verified": true,
"website": "https://www.nsgk.se/",
"last_updated": "2026-03"
},
"geometry": { "type": "Point", "coordinates": [16.3256,58.4864] }
},

{
"type": "Feature",
"properties": {
"id": "vadstena-golfklubb",
"name": "Vadstena Golfklubb",
"municipality": "Vadstena",
"region": "Östergötland",
"holes": 9,
"pay_and_play": true,
"verified": true,
"website": "https://vadstenagk.se",
"last_updated": "2026-03"
},
"geometry": { "type": "Point", "coordinates": [14.9276,58.4321] }
},

{
"type": "Feature",
"properties": {
"id": "mjolby-golfklubb",
"name": "Mjölby Golfklubb",
"municipality": "Mjölby",
"region": "Östergötland",
"holes": 9,
"pay_and_play": true,
"verified": true,
"website": "https://mjolbygk.se",
"last_updated": "2026-03"
},
"geometry": { "type": "Point", "coordinates": [15.1141,58.3347] }
},

{
"type": "Feature",
"properties": {
"id": "atvidabergs-golfklubb",
"name": "Åtvidabergs Golfklubb",
"municipality": "Åtvidaberg",
"region": "Östergötland",
"holes": 9,
"pay_and_play": true,
"verified": true,
"website": "https://atvidabergsgk.se",
"last_updated": "2026-03"
},
"geometry": { "type": "Point", "coordinates": [16.0136,58.2090] }
},

{
"type": "Feature",
"properties": {
"id": "bravikens-golfklubb-korthal",
"name": "Bråvikens Golfklubb (Korthål)",
"municipality": "Norrköping",
"region": "Östergötland",
"holes": 8,
"pay_and_play": true,
"verified": true,
"website": "https://bragk.se",
"last_updated": "2026-03"
},
"geometry": { "type": "Point", "coordinates": [16.2723,58.6232] }
},

{
"type": "Feature",
"properties": {
"id": "fleminge-golfklubb",
"name": "Fleminge Golfklubb",
"municipality": "Vikbolandet",
"region": "Östergötland",
"holes": 9,
"pay_and_play": true,
"verified": true,
"website": "https://flemmingegolf.se",
"last_updated": "2026-03"
},
"geometry": { "type": "Point", "coordinates": [16.5152,58.5353] }
},

{
"type": "Feature",
"properties": {
"id": "ingelsta-golfklubb",
"name": "Ingelsta Golfklubb",
"municipality": "Norrköping",
"region": "Östergötland",
"holes": 12,
"pay_and_play": true,
"verified": true,
"website": "https://ingelstagk.se",
"last_updated": "2026-03"
},
"geometry": { "type": "Point", "coordinates": [16.1807,58.6208] }
},

{
"type": "Feature",
"properties": {
"id": "motala-golfklubb-hed",
"name": "Motala Golfklubb (Hedslingan)",
"municipality": "Motala",
"region": "Östergötland",
"holes": 9,
"pay_and_play": true,
"verified": true,
"website": "https://motalagk.se",
"last_updated": "2026-03"
},
"geometry": { "type": "Point", "coordinates": [15.1044,58.5592] }
},

{
"type": "Feature",
"properties": {
"id": "nsgk-hylinge",
"name": "NSGK Hylinge",
"municipality": "Söderköping",
"region": "Östergötland",
"holes": 9,
"pay_and_play": true,
"verified": true,
"website": "https://www.nsgk.se/",
"last_updated": "2026-03"
},
"geometry": { "type": "Point", "coordinates": [16.1689,58.4888] }
},

{
"type": "Feature",
"properties": {
"id": "vreta-kloster-golfklubb",
"name": "Vreta Kloster Golfklubb",
"municipality": "Ljungsbro",
"region": "Östergötland",
"holes": 9,
"pay_and_play": true,
"verified": true,
"website": "https://www.vkgk.se",
"last_updated": "2026-03"
},
"geometry": { "type": "Point", "coordinates": [15.5109,58.5023] }
},

{
"type": "Feature",
"properties": {
"id": "motala-golfklubb-korthal",
"name": "Motala Golfklubb (Korthålsbana)",
"municipality": "Motala",
"region": "Östergötland",
"holes": 6,
"pay_and_play": true,
"verified": true,
"website": "https://motalagk.se",
"last_updated": "2026-03"
},
"geometry": { "type": "Point", "coordinates": [15.0954,58.5573] }
},

{
"type": "Feature",
"properties": {
"id": "mauritzbergs-slott-golf",
"name": "Mauritzbergs Slott & Golf",
"municipality": "Vikbolandet",
"region": "Östergötland",
"holes": 18,
"pay_and_play": true,
"verified": true,
"website": "https://mauritzberg.se",
"last_updated": "2026-03"
},
"geometry": { "type": "Point", "coordinates": [16.6784,58.6083] }
},

{
"type": "Feature",
"properties": {
"id": "ombergs-golf-resort",
"name": "Ombergs Golf Resort",
"municipality": "Ödeshög",
"region": "Östergötland",
"holes": 18,
"pay_and_play": true,
"verified": true,
"website": "https://omberggolf.se",
"last_updated": "2026-03"
},
"geometry": { "type": "Point", "coordinates": [14.6554,58.3322] }
}

]
}
