{
"type": "Feature",
"properties": {
"id": "ronneback-golfklubb",
"name": "Rönnebäck Golfklubb",
"municipality": "Malmö",
"region": "Skåne",
"holes": 9,
"pay_and_play": true,
"verified": true,
"website": "https://hintongolf.se/",
"last_updated": "2026-03"
},
"geometry": {
"type": "Point",
"coordinates": [13.0779,55.5756]
}
},

{
"type": "Feature",
"properties": {
"id": "sofiedals-golfklubb",
"name": "Sofiedals Golfklubb",
"municipality": "Malmö",
"region": "Skåne",
"holes": 9,
"pay_and_play": true,
"verified": true,
"website": "https://sofiedalsgk.se",
"last_updated": "2026-03"
},
"geometry": {
"type": "Point",
"coordinates": [13.0435,55.6090]
}
},

{
"type": "Feature",
"properties": {
"id": "tomelilla-golfklubb",
"name": "Tomelilla Golfklubb",
"municipality": "Tomelilla",
"region": "Skåne",
"holes": 9,
"pay_and_play": true,
"verified": true,
"website": "https://tomelillagk.se",
"last_updated": "2026-03"
},
"geometry": {
"type": "Point",
"coordinates": [13.9327,55.5409]
}
},

{
"type": "Feature",
"properties": {
"id": "perstorps-golfklubb",
"name": "Perstorps Golfklubb",
"municipality": "Perstorp",
"region": "Skåne",
"holes": 9,
"pay_and_play": true,
"verified": true,
"website": "https://perstorpsgk.se",
"last_updated": "2026-03"
},
"geometry": {
"type": "Point",
"coordinates": [13.4052,56.1412]
}
},

{
"type": "Feature",
"properties": {
"id": "hasslegardens-golfklubb",
"name": "Hässlegårdens Golfklubb",
"municipality": "Hässleholm",
"region": "Skåne",
"holes": 9,
"pay_and_play": true,
"verified": true,
"website": "https://hggk.se/",
"last_updated": "2026-03"
},
"geometry": {
"type": "Point",
"coordinates": [13.7440,56.1653]
}
},

{
"type": "Feature",
"properties": {
"id": "skyrups-golfklubb",
"name": "Skyrups Golfklubb",
"municipality": "Höör",
"region": "Skåne",
"holes": 9,
"pay_and_play": true,
"verified": true,
"website": "https://skyrupsgk.se",
"last_updated": "2026-03"
},
"geometry": {
"type": "Point",
"coordinates": [13.5593,55.9374]
}
},

{
"type": "Feature",
"properties": {
"id": "ystad-golfklubb",
"name": "Ystad Golfklubb",
"municipality": "Ystad",
"region": "Skåne",
"holes": 9,
"pay_and_play": true,
"verified": true,
"website": "https://ystadgk.se",
"last_updated": "2026-03"
},
"geometry": {
"type": "Point",
"coordinates": [13.8386,55.4339]
}
},

{
"type": "Feature",
"properties": {
"id": "bastad-golfklubb",
"name": "Båstad Golfklubb",
"municipality": "Båstad",
"region": "Skåne",
"holes": 9,
"pay_and_play": true,
"verified": true,
"website": "https://www.bgk.se/",
"last_updated": "2026-03"
},
"geometry": {
"type": "Point",
"coordinates": [12.8332,56.4329]
}
},

{
"type": "Feature",
"properties": {
"id": "vellinge-golfklubb",
"name": "Vellinge Golfklubb",
"municipality": "Vellinge",
"region": "Skåne",
"holes": 9,
"pay_and_play": true,
"verified": true,
"website": "https://vellingegk.se",
"last_updated": "2026-03"
},
"geometry": {
"type": "Point",
"coordinates": [12.9909,55.4751]
}
},

{
"type": "Feature",
"properties": {
"id": "abbekas-golfklubb",
"name": "Abbekås Golfklubb",
"municipality": "Skurup",
"region": "Skåne",
"holes": 9,
"pay_and_play": true,
"verified": true,
"website": "https://www.abbekasgk.se",
"last_updated": "2026-03"
},
"geometry": {
"type": "Point",
"coordinates": [13.5987,55.4015]
}
},

{
"type": "Feature",
"properties": {
"id": "allerums-golfklubb",
"name": "Allerums Golfklubb",
"municipality": "Helsingborg",
"region": "Skåne",
"holes": 9,
"pay_and_play": true,
"verified": true,
"website": "https://www.allerumgk.nu",
"last_updated": "2026-03"
},
"geometry": {
"type": "Point",
"coordinates": [12.7076,56.0908]
}
},

{
"type": "Feature",
"properties": {
"id": "araslov-golfklubb",
"name": "Araslöv Golfklubb",
"municipality": "Kristianstad",
"region": "Skåne",
"holes": 6,
"pay_and_play": true,
"verified": true,
"website": "https://araslovgolf.se/",
"last_updated": "2026-03"
},
"geometry": {
"type": "Point",
"coordinates": [14.0951,56.0414]
}
},

{
"type": "Feature",
"properties": {
"id": "degerberga-widtskofle-golfklubb",
"name": "Degerberga-Widtsköfle Golfklubb",
"municipality": "Kristianstad",
"region": "Skåne",
"holes": 9,
"pay_and_play": true,
"verified": true,
"website": "https://dwgk.se",
"last_updated": "2026-03"
},
"geometry": {
"type": "Point",
"coordinates": [14.0812,55.8288]
}
},

{
"type": "Feature",
"properties": {
"id": "eslovs-golfklubb",
"name": "Eslövs Golfklubb",
"municipality": "Eslöv",
"region": "Skåne",
"holes": 9,
"pay_and_play": true,
"verified": true,
"website": "https://www.eslovsgk.se",
"last_updated": "2026-03"
},
"geometry": {
"type": "Point",
"coordinates": [13.2879,55.8416]
}
},
{
"type":"Feature",
"properties":{
"id":"glumslovs-golfklubb",
"name":"Glumslövs Golfklubb",
"municipality":"Landskrona",
"region":"Skåne",
"holes":9,
"pay_and_play":true,
"verified":true,
"website":"https://www.glumslovgolf.com/",
"last_updated":"2026-03"
},
"geometry":{
"type":"Point",
"coordinates":[12.7969,55.9426]
}
},

{
"type":"Feature",
"properties":{
"id":"naturligtvis-golf-country-club",
"name":"Naturligtvis Golf & Country Club",
"municipality":"Tomelilla",
"region":"Skåne",
"holes":12,
"pay_and_play":true,
"verified":true,
"website":"https://www.naturligtvisgcc.se/",
"last_updated":"2026-03"
},
"geometry":{
"type":"Point",
"coordinates":[13.9759,55.5367]
}
},

{
"type":"Feature",
"properties":{
"id":"oxie-golfklubb",
"name":"Oxie Golfklubb",
"municipality":"Malmö",
"region":"Skåne",
"holes":12,
"pay_and_play":true,
"verified":true,
"website":"https://www.oxiegk.se",
"last_updated":"2026-03"
},
"geometry":{
"type":"Point",
"coordinates":[13.1236,55.5504]
}
},

{
"type":"Feature",
"properties":{
"id":"rya-golfklubb",
"name":"Rya Golfklubb",
"municipality":"Helsingborg",
"region":"Skåne",
"holes":6,
"pay_and_play":true,
"verified":true,
"website":"https://www.ryagk.se",
"last_updated":"2026-03"
},
"geometry":{
"type":"Point",
"coordinates":[12.6607,56.0321]
}
},

{
"type":"Feature",
"properties":{
"id":"sankt-arild-golfklubb",
"name":"Sankt Arild Golfklubb",
"municipality":"Höganäs",
"region":"Skåne",
"holes":9,
"pay_and_play":true,
"verified":true,
"website":"https://www.starild.se",
"last_updated":"2026-03"
},
"geometry":{
"type":"Point",
"coordinates":[12.5799,56.2851]
}
},

{
"type":"Feature",
"properties":{
"id":"soderslatts-golfklubb",
"name":"Söderslätts Golfklubb",
"municipality":"Trelleborg",
"region":"Skåne",
"holes":9,
"pay_and_play":true,
"verified":true,
"website":"https://soderslattsgk.com/",
"last_updated":"2026-03"
},
"geometry":{
"type":"Point",
"coordinates":[13.1461,55.3514]
}
},

{
"type":"Feature",
"properties":{
"id":"tegelberga-golfklubb",
"name":"Tegelberga Golfklubb",
"municipality":"Staffanstorp",
"region":"Skåne",
"holes":9,
"pay_and_play":true,
"verified":true,
"website":"https://www.tegelbergagk.se",
"last_updated":"2026-03"
},
"geometry":{
"type":"Point",
"coordinates":[13.2169,55.6651]
}
},

{
"type":"Feature",
"properties":{
"id":"vallgardens-golfklubb",
"name":"Vallgårdens Golfklubb",
"municipality":"Helsingborg",
"region":"Skåne",
"holes":9,
"pay_and_play":true,
"verified":true,
"website":"https://vallgardensgk.se/",
"last_updated":"2026-03"
},
"geometry":{
"type":"Point",
"coordinates":[12.6745,56.0585]
}
},

{
"type":"Feature",
"properties":{
"id":"vasatorps-golfklubb",
"name":"Vasatorps Golfklubb",
"municipality":"Helsingborg",
"region":"Skåne",
"holes":9,
"pay_and_play":true,
"verified":true,
"website":"https://vasatorp.golf",
"last_updated":"2026-03"
},
"geometry":{
"type":"Point",
"coordinates":[12.7398,56.0769]
}
},

{
"type":"Feature",
"properties":{
"id":"akagardens-golfklubb",
"name":"Åkagårdens Golfklubb",
"municipality":"Båstad",
"region":"Skåne",
"holes":6,
"pay_and_play":true,
"verified":true,
"website":"https://www.akgk.se",
"last_updated":"2026-03"
},
"geometry":{
"type":"Point",
"coordinates":[12.8509,56.4282]
}
},

{
"type":"Feature",
"properties":{
"id":"orestad-golfklubb",
"name":"Örestads Golfklubb",
"municipality":"Malmö",
"region":"Skåne",
"holes":18,
"pay_and_play":true,
"verified":true,
"website":"https://orestadsgk.com/",
"last_updated":"2026-03"
},
"geometry":{
"type":"Point",
"coordinates":[13.0878,55.5889]
}
},

{
"type":"Feature",
"properties":{
"id":"osterlens-golfklubb",
"name":"Österlens Golfklubb",
"municipality":"Simrishamn",
"region":"Skåne",
"holes":6,
"pay_and_play":true,
"verified":true,
"website":"https://www.osterlensgk.se",
"last_updated":"2026-03"
},
"geometry":{
"type":"Point",
"coordinates":[14.3562,55.5850]
}
},

{
"type":"Feature",
"properties":{
"id":"ostra-goinge-golfklubb",
"name":"Östra Göinge Golfklubb",
"municipality":"Östra Göinge",
"region":"Skåne",
"holes":18,
"pay_and_play":true,
"verified":true,
"website":"https://www.oggk.se",
"last_updated":"2026-03"
},
"geometry":{
"type":"Point",
"coordinates":[14.3013,56.1407 ]
      }
    }
  ]
}

   
