{
"type":"FeatureCollection",
"name":"uppland",
"features":[

{
"type":"Feature",
"properties":{
"id":"johannesberg-golf",
"name":"Johannesberg Golf",
"municipality":"Norrtälje",
"region":"Uppland",
"holes":9,
"pay_and_play":true,
"verified":true,
"website":"https://www.johannesbergsslott.se/golf.html",
"last_updated":"2026-03"
},
"geometry":{"type":"Point","coordinates":[18.2349,59.6701]}
},

{
"type":"Feature",
"properties":{
"id":"sundsta-golf",
"name":"Sundsta Golf",
"municipality":"Norrtälje",
"region":"Uppland",
"holes":9,
"pay_and_play":true,
"verified":true,
"website":"https://www.sundsta.se/golf-norrtalje",
"last_updated":"2026-03"
},
"geometry":{"type":"Point","coordinates":[18.6372,59.7828]}
},

{
"type":"Feature",
"properties":{
"id":"upsala-golfklubb-lilla-banan",
"name":"Upsala Golfklubb (Lilla Banan)",
"municipality":"Uppsala",
"region":"Uppland",
"holes":9,
"pay_and_play":true,
"verified":true,
"website":"https://www.upsalagk.se",
"last_updated":"2026-03"
},
"geometry":{"type":"Point","coordinates":[17.5125,59.8535]}
},

{
"type":"Feature",
"properties":{
"id":"vaddo-golfklubb",
"name":"Väddö Golfklubb",
"municipality":"Norrtälje",
"region":"Uppland",
"holes":9,
"pay_and_play":true,
"verified":true,
"website":"https://vgk.nu/",
"last_updated":"2026-03"
},
"geometry":{"type":"Point","coordinates":[18.8249,59.9824]}
},

{
"type":"Feature",
"properties":{
"id":"oregrunds-golfklubb",
"name":"Öregrunds Golfklubb",
"municipality":"Östhammar",
"region":"Uppland",
"holes":18,
"pay_and_play":true,
"verified":true,
"website":"https://www.oregrundsgk.com",
"last_updated":"2026-03"
},
"geometry":{"type":"Point","coordinates":[18.3909,60.2981]}
},

{
"type":"Feature",
"properties":{
"id":"gronlund-golfklubb",
"name":"Grönlund Golfklubb",
"municipality":"Uppsala",
"region":"Uppland",
"holes":18,
"pay_and_play":true,
"verified":true,
"website":"https://gronlundgk.se",
"last_updated":"2026-03"
},
"geometry":{"type":"Point","coordinates":[17.9719,59.8927]}
},

{
"type":"Feature",
"properties":{
"id":"vassunda-golfklubb",
"name":"Vassunda Golfklubb",
"municipality":"Knivsta",
"region":"Uppland",
"holes":18,
"pay_and_play":true,
"verified":true,
"website":"https://vassundagolf.se/",
"last_updated":"2026-03"
},
"geometry":{"type":"Point","coordinates":[17.7525,59.7338]}
},

{
"type":"Feature",
"properties":{
"id":"enkopings-golfklubb",
"name":"Enköpings Golfklubb",
"municipality":"Enköping",
"region":"Uppland",
"holes":18,
"pay_and_play":true,
"verified":true,
"website":"https://enkopinggolf.se/",
"last_updated":"2026-03"
},
"geometry":{"type":"Point","coordinates":[17.0229,59.6134]}
},

{
"type":"Feature",
"properties":{
"id":"golfstar-sigtuna",
"name":"GolfStar Sigtuna",
"municipality":"Sigtuna",
"region":"Uppland",
"holes":18,
"pay_and_play":true,
"verified":true,
"website":"https://golfstar.se/sigtuna",
"last_updated":"2026-03"
},
"geometry":{"type":"Point","coordinates":[17.6519,59.6355]}
},

{
"type":"Feature",
"properties":{
"id":"wattholma-golfklubb",
"name":"Wattholma Golfklubb",
"municipality":"Uppsala",
"region":"Uppland",
"holes":9,
"pay_and_play":true,
"verified":true,
"website":"https://wattholmagk.se",
"last_updated":"2026-03"
},
"geometry":{"type":"Point","coordinates":[17.7429,59.9921]}
},

{
"type":"Feature",
"properties":{
"id":"burviks-golfklubb",
"name":"Burviks Golfklubb",
"municipality":"Uppsala",
"region":"Uppland",
"holes":18,
"pay_and_play":true,
"verified":true,
"website":"https://burvik.se",
"last_updated":"2026-03"
},
"geometry":{"type":"Point","coordinates":[18.2846,59.8818]}
},

{
"type":"Feature",
"properties":{
"id":"golfuppsala-soderby",
"name":"GolfUppsala - Söderby",
"municipality":"Uppsala",
"region":"Uppland",
"holes":9,
"pay_and_play":true,
"verified":true,
"website":"https://golfuppsala.se",
"last_updated":"2026-03"
},
"geometry":{"type":"Point","coordinates":[17.5682,59.7918]}
},

{
"type":"Feature",
"properties":{
"id":"golfuppsala-edenhof",
"name":"GolfUppsala - Edenhof",
"municipality":"Uppsala",
"region":"Uppland",
"holes":9,
"pay_and_play":true,
"verified":true,
"website":"https://golfuppsala.se",
"last_updated":"2026-03"
},
"geometry":{"type":"Point","coordinates":[17.4829,59.9844]}
},

{
"type":"Feature",
"properties":{
"id":"roslagens-gk-norrtalje",
"name":"Roslagens GK Norrtälje",
"municipality":"Norrtälje",
"region":"Uppland",
"holes":9,
"pay_and_play":true,
"verified":true,
"website":"https://roslagensgk.com",
"last_updated":"2026-03"
},
"geometry":{"type":"Point","coordinates":[18.6436,59.7324]}
},

{
"type":"Feature",
"properties":{
"id":"hallstaviks-golfklubb",
"name":"Hallstaviks Golfklubb",
"municipality":"Norrtälje",
"region":"Uppland",
"holes":18,
"pay_and_play":true,
"verified":true,
"website":"https://hallstavikgk.se",
"last_updated":"2026-03"
},
"geometry":{"type":"Point","coordinates":[18.5749,60.0338]}
},

{
"type":"Feature",
"properties":{
"id":"sparren-golfklubb",
"name":"Sparren Golfklubb",
"municipality":"Norrtälje",
"region":"Uppland",
"holes":18,
"pay_and_play":true,
"verified":true,
"website":"https://sparrengolf.se",
"last_updated":"2026-03"
},
"geometry":{"type":"Point","coordinates":[18.2139,59.6838]}
},

{
"type":"Feature",
"properties":{
"id":"olandsbygdens-golfklubb",
"name":"Olandsbygdens Golfklubb",
"municipality":"Östhammar",
"region":"Uppland",
"holes":9,
"pay_and_play":true,
"verified":true,
"website":"https://olandsbygdensgk.se",
"last_updated":"2026-03"
},
"geometry":{"type":"Point","coordinates":[18.0629,60.1035]}
}

]
}
